{
  "version": 0.6,
  "generator": "Overpass API 0.7.62.11 87bfad18",
  "osm3s": {
    "timestamp_osm_base": "2026-03-16T01:09:09Z",
    "timestamp_areas_base": "2026-03-15T17:50:45Z",
    "copyright": "The data included in this document is from www.openstreetmap.org. The data is made available under ODbL."
  },
  "elements": [
    {
      "type": "node",
      "id": 259543787,
      "lat": 27.9422507,
      "lon": -82.457811,
      "tags": {
        "amenity": "waste_basket",
        "material": "metal",
        "waste": "trash"
      }
    },
    {
      "type": "node",
      "id": 279827056,
      "lat": 27.9485379,
      "lon": -82.4585068,
      "tags": {
        "addr:city": "Tampa",
        "addr:country": "US",
        "addr:housenumber": "220",
        "addr:postcode": "33602",
        "addr:state": "FL",
        "addr:street": "East Madison Street",
        "amenity": "pharmacy",
        "brand": "CVS Pharmacy",
        "brand:website": "https://www.cvs.com/",
        "brand:wikidata": "Q2078880",
        "dispensing": "no",
        "healthcare": "pharmacy",
        "name": "CVS Pharmacy",
        "short_name": "CVS",
        "wheelchair": "yes"
      }
    },
    {
      "type": "node",
      "id": 279935911,
      "lat": 27.9473718,
      "lon": -82.4595414,
      "tags": {
        "addr:city": "Tampa",
        "addr:housenumber": "401",
        "addr:postcode": "33602",
        "addr:state": "FL",
        "addr:street": "North Ashley Drive",
        "amenity": "post_office",
        "brand": "United States Post Office",
        "brand:wikidata": "Q668687",
        "level": "1",
        "name": "United States Post Office",
        "operator": "United States Postal Service",
        "operator:short": "USPS",
        "operator:type": "public",
        "operator:website": "https://www.usps.com",
        "operator:wikidata": "Q668687",
        "operator:wikipedia": "en:United States Postal Service",
        "short_name": "USPS"
      }
    },
    {
      "type": "node",
      "id": 282685801,
      "lat": 27.9462133,
      "lon": -82.4641818,
      "tags": {
        "addr:city": "Tampa",
        "addr:country": "US",
        "addr:postcode": "33606",
        "addr:state": "FL",
        "addr:street": "West North B Street",
        "check_date:opening_hours": "2023-07-05",
        "fee": "yes",
        "museum": "history",
        "name": "Henry B. Plant Museum",
        "opening_hours": "Mo off; Tu-Sa 10:00-17:00; Su 12:00-17:00; Dec off; Jul 04 off",
        "tourism": "museum",
        "website": "https://www.plantmuseum.com/",
        "wheelchair": "yes",
        "wikidata": "Q3132598"
      }
    },
    {
      "type": "node",
      "id": 282735793,
      "lat": 27.9555255,
      "lon": -82.4376323,
      "tags": {
        "amenity": "fuel"
      }
    },
    {
      "type": "node",
      "id": 287065239,
      "lat": 27.9628273,
      "lon": -82.440165,
      "tags": {
        "amenity": "place_of_worship",
        "created_by": "Potlatch 0.10e",
        "name": "Our Lady of Perpetual Help Church",
        "religion": "christian"
      }
    },
    {
      "type": "node",
      "id": 287065309,
      "lat": 27.9641125,
      "lon": -82.4375751,
      "tags": {
        "amenity": "post_office",
        "created_by": "Potlatch 0.10f",
        "name": "Ybor City Post Office"
      }
    },
    {
      "type": "node",
      "id": 287304819,
      "lat": 27.9643442,
      "lon": -82.4344375,
      "tags": {
        "amenity": "fuel",
        "created_by": "Potlatch 0.10b"
      }
    },
    {
      "type": "node",
      "id": 290856734,
      "lat": 27.9688701,
      "lon": -82.4515264,
      "tags": {
        "amenity": "place_of_worship",
        "name": "Faith Tabernacle of Tampa",
        "religion": "christian"
      }
    },
    {
      "type": "node",
      "id": 291135755,
      "lat": 27.9704469,
      "lon": -82.4508913,
      "tags": {
        "amenity": "place_of_worship",
        "denomination": "african_methodist_episcopal_zion",
        "name": "Mount Sinai African Methodist Episcopal Zion Church",
        "religion": "christian"
      }
    },
    {
      "type": "node",
      "id": 292327922,
      "lat": 27.9665592,
      "lon": -82.4313387,
      "tags": {
        "amenity": "place_of_worship",
        "denomination": "baptist",
        "name": "New Mount Zion Missionary Baptist Church",
        "religion": "christian"
      }
    },
    {
      "type": "node",
      "id": 297463159,
      "lat": 27.9662907,
      "lon": -82.4137296,
      "tags": {
        "amenity": "fuel",
        "created_by": "Potlatch 0.10b"
      }
    },
    {
      "type": "node",
      "id": 297463160,
      "lat": 27.9664348,
      "lon": -82.4144763,
      "tags": {
        "amenity": "fuel",
        "created_by": "Potlatch 0.10b"
      }
    },
    {
      "type": "node",
      "id": 297465194,
      "lat": 27.9695297,
      "lon": -82.4278474,
      "tags": {
        "amenity": "place_of_worship",
        "name": "House of God Church",
        "religion": "christian"
      }
    },
    {
      "type": "node",
      "id": 297465403,
      "lat": 27.9673475,
      "lon": -82.4314159,
      "tags": {
        "amenity": "place_of_worship",
        "denomination": "african_methodist_episcopal",
        "name": "Saint Luke AME Church",
        "religion": "christian"
      }
    },
    {
      "type": "node",
      "id": 299103581,
      "lat": 27.9669726,
      "lon": -82.4227715,
      "tags": {
        "amenity": "place_of_worship",
        "denomination": "methodist",
        "name": "United Methodist Church of Tampa",
        "religion": "christian"
      }
    },
    {
      "type": "node",
      "id": 299103957,
      "lat": 27.9679659,
      "lon": -82.4227577,
      "tags": {
        "amenity": "place_of_worship",
        "denomination": "baptist",
        "name": "Victory Tabernacle Missionary Baptist Church",
        "religion": "christian"
      }
    },
    {
      "type": "node",
      "id": 299108042,
      "lat": 27.9708693,
      "lon": -82.4229551,
      "tags": {
        "amenity": "place_of_worship",
        "name": "34th Street Church of God",
        "religion": "christian"
      }
    },
    {
      "type": "node",
      "id": 300352876,
      "lat": 27.9611255,
      "lon": -82.4689335,
      "tags": {
        "leisure": "slipway"
      }
    },
    {
      "type": "node",
      "id": 306400289,
      "lat": 27.9734866,
      "lon": -82.4514835,
      "tags": {
        "amenity": "place_of_worship",
        "name": "Deeper Life Ministries",
        "religion": "christian"
      }
    },
    {
      "type": "node",
      "id": 308519304,
      "lat": 27.9817608,
      "lon": -82.4528778,
      "tags": {
        "amenity": "fuel",
        "brand": "7-Eleven",
        "brand:wikidata": "Q259340",
        "name": "7-Eleven"
      }
    },
    {
      "type": "node",
      "id": 309159996,
      "lat": 27.96406,
      "lon": -82.4358295,
      "tags": {
        "addr:city": "Tampa",
        "addr:housenumber": "2302",
        "addr:postcode": "33605-3928",
        "addr:state": "FL",
        "addr:street": "North 21st Street",
        "amenity": "fast_food",
        "brand": "Burger King",
        "brand:wikidata": "Q177054",
        "cuisine": "burger",
        "delivery": "yes",
        "drive_through": "yes",
        "name": "Burger King",
        "opening_hours": "Mo-Th 05:00-24:00; Fr-Sa 05:00-01:00; Su 05:00-24:00",
        "phone": "+1 813-443-8295",
        "ref": "3066",
        "takeaway": "yes",
        "website": "https://www.bk.com/store-locator/store/restaurant_1689"
      }
    },
    {
      "type": "node",
      "id": 309160598,
      "lat": 27.9642764,
      "lon": -82.4353229,
      "tags": {
        "addr:city": "Tampa",
        "addr:housenumber": "2101",
        "addr:postcode": "33605",
        "addr:state": "FL",
        "addr:street": "East 13th Avenue",
        "amenity": "fast_food",
        "brand": "McDonald's",
        "brand:wikidata": "Q38076",
        "cuisine": "burger",
        "drive_through": "yes",
        "internet_access": "wlan",
        "name": "McDonald's",
        "opening_hours": "05:00-22:00",
        "phone": "+1 813-248-5194",
        "takeaway": "yes",
        "website": "https://www.mcdonalds.com/us/en-us/location/27982.html"
      }
    },
    {
      "type": "node",
      "id": 317994690,
      "lat": 27.9391211,
      "lon": -82.4636135,
      "tags": {
        "amenity": "place_of_worship",
        "denomination": "presbyterian",
        "name": "Holy Trinity Presbyterian Church",
        "religion": "christian"
      }
    },
    {
      "type": "node",
      "id": 318136855,
      "lat": 27.9108425,
      "lon": -82.4458719,
      "tags": {
        "leisure": "slipway"
      }
    },
    {
      "type": "node",
      "id": 318157981,
      "lat": 27.9112106,
      "lon": -82.4475947,
      "tags": {
        "leisure": "slipway"
      }
    },
    {
      "type": "node",
      "id": 320911881,
      "lat": 27.9614582,
      "lon": -82.4416202,
      "tags": {
        "addr:city": "Tampa",
        "addr:housenumber": "1600",
        "addr:postcode": "33605",
        "addr:state": "FL",
        "addr:street": "East 8th Avenue",
        "addr:unit": "A200",
        "amenity": "cinema",
        "brand": "AMC",
        "brand:wikidata": "Q294721",
        "name": "AMC CLASSIC Centro Ybor 10",
        "screen": "10",
        "website": "https://www.amctheatres.com/movie-theatres/tampa-st-petersburg/amc-classic-centro-ybor-10",
        "wikidata": "Q42418178"
      }
    },
    {
      "type": "node",
      "id": 320953822,
      "lat": 27.9614841,
      "lon": -82.4452048,
      "tags": {
        "amenity": "restaurant",
        "created_by": "Potlatch 0.10f",
        "name": "Spaghetti Warehouse"
      }
    },
    {
      "type": "node",
      "id": 321445195,
      "lat": 27.9380531,
      "lon": -82.4540697,
      "tags": {
        "amenity": "bank",
        "created_by": "Potlatch 0.10f",
        "name": "Bank of Florida"
      }
    },
    {
      "type": "node",
      "id": 321447916,
      "lat": 27.938872,
      "lon": -82.454786,
      "tags": {
        "amenity": "restaurant",
        "cuisine": "seafood;sushi",
        "name": "Jackson's Bistro",
        "outdoor_seating": "yes",
        "smoking": "outside"
      }
    },
    {
      "type": "node",
      "id": 321448213,
      "lat": 27.9484644,
      "lon": -82.4586879,
      "tags": {
        "addr:city": "Tampa",
        "addr:country": "US",
        "addr:housenumber": "212",
        "addr:postcode": "33602",
        "addr:state": "FL",
        "addr:street": "E Madison Street",
        "amenity": "fast_food",
        "brand": "Subway",
        "brand:wikidata": "Q244457",
        "cuisine": "sandwich",
        "name": "Subway",
        "opening_hours": "Mo-Sa 09:00-21:00;Su 09:00-18:00",
        "phone": "+1 813-223-4448",
        "takeaway": "yes",
        "website": "https://restaurants.subway.com/united-states/fl/tampa/212-e-madison-st",
        "wheelchair": "yes"
      }
    },
    {
      "type": "node",
      "id": 321449418,
      "lat": 27.957311,
      "lon": -82.4603397,
      "tags": {
        "amenity": "cafe",
        "name": "Cafe Hey"
      }
    },
    {
      "type": "node",
      "id": 321457554,
      "lat": 27.9580736,
      "lon": -82.4598356,
      "tags": {
        "addr:city": "Tampa",
        "addr:country": "US",
        "addr:postcode": "33602",
        "addr:state": "FL",
        "addr:street": "N Franklin St",
        "amenity": "place_of_worship",
        "denomination": "evangelical",
        "name": "Grace Evangelical Church",
        "religion": "christian"
      }
    },
    {
      "type": "node",
      "id": 321466877,
      "lat": 27.9504126,
      "lon": -82.4554185,
      "tags": {
        "addr:city": "Tampa",
        "addr:country": "US",
        "addr:housenumber": "620",
        "addr:postcode": "33602",
        "addr:state": "FL",
        "addr:street": "E Twiggs Street",
        "amenity": "fast_food",
        "brand": "Subway",
        "brand:wikidata": "Q244457",
        "cuisine": "sandwich",
        "drive_through": "no",
        "name": "Subway",
        "opening_hours": "Mo-Fr 07:00-19:00",
        "outdoor_seating": "no",
        "phone": "+1 813-542-1552",
        "takeaway": "yes",
        "website": "https://restaurants.subway.com/united-states/fl/tampa/620-twiggs-ave"
      }
    },
    {
      "type": "node",
      "id": 321795540,
      "lat": 28.0100814,
      "lon": -82.4742208,
      "tags": {
        "amenity": "place_of_worship",
        "created_by": "xybot",
        "denomination": "quaker",
        "name": "Tampa Friends Meeting House",
        "religion": "christian"
      }
    },
    {
      "type": "node",
      "id": 322799575,
      "lat": 27.9613506,
      "lon": -82.4416215,
      "tags": {
        "addr:city": "Tampa",
        "addr:housenumber": "1600",
        "addr:postcode": "33605",
        "addr:state": "FL",
        "addr:street": "East 8th Avenue",
        "amenity": "pub",
        "amenity_1": "restaurant",
        "craft": "brewery",
        "dog": "outside",
        "name": "Tampa Bay Brewing Company",
        "opening_hours": "Mo-Th 11:00-22:00; Fr-Sa 11:00-23:00; Su11:00-22:00",
        "website": "https://www.tbbc.beer/"
      }
    },
    {
      "type": "node",
      "id": 322800062,
      "lat": 27.958677,
      "lon": -82.4405852,
      "tags": {
        "amenity": "restaurant",
        "highchair": "yes",
        "name": "El Puerto Argentinean Grill",
        "opening_hours": "Mo 11:00-15:00; Tu-Th 11:00-22:00; Fr-Sa 11:00-00:00; Su 12:00-21:30",
        "outdoor_seating": "yes",
        "toilets": "yes",
        "toilets:access": "customers",
        "wheelchair": "yes"
      }
    },
    {
      "type": "node",
      "id": 322800473,
      "lat": 27.9601291,
      "lon": -82.4396789,
      "tags": {
        "addr:city": "Tampa",
        "addr:country": "US",
        "addr:housenumber": "1727",
        "addr:postcode": "33605",
        "addr:state": "FL",
        "addr:street": "East 7th Avenue",
        "amenity": "restaurant",
        "check_date": "2025-12-31",
        "highchair": "no",
        "internet_access:fee": "no",
        "name": "La Terrazza Restaurant",
        "opening_hours": "Tu-Fr 11:30-14:00; Tu-Sa 17:30",
        "outdoor_seating": "yes",
        "phone": "+1-813-248-1326",
        "toilets": "yes",
        "toilets:access": "customers",
        "website": "https://www.laterrazzayborcity.com/",
        "wheelchair": "yes"
      }
    },
    {
      "type": "node",
      "id": 322802618,
      "lat": 27.9600727,
      "lon": -82.4402762,
      "tags": {
        "amenity": "bank",
        "brand": "Truist",
        "brand:wikidata": "Q795486",
        "name": "Truist",
        "website": "https://www.truist.com/branch/fl/tampa/33605/1701-e-7th-ave"
      }
    },
    {
      "type": "node",
      "id": 338682117,
      "lat": 27.9360358,
      "lon": -82.4226884,
      "tags": {
        "created_by": "Potlatch 0.10f",
        "name": "McKay Bay",
        "natural": "bay"
      }
    },
    {
      "type": "node",
      "id": 354580249,
      "lat": 28.0576209,
      "lon": -82.4139453,
      "tags": {
        "amenity": "vending_machine",
        "vending": "parking_tickets"
      }
    },
    {
      "type": "node",
      "id": 358690939,
      "lat": 28.0114082,
      "lon": -82.4584278,
      "tags": {
        "ele": "12",
        "gnis:feature_id": "277837",
        "leisure": "park",
        "name": "American Legion Playground",
        "wikidata": "Q34812116"
      }
    },
    {
      "type": "node",
      "id": 358692755,
      "lat": 27.979107,
      "lon": -82.4526363,
      "tags": {
        "amenity": "school",
        "ele": "15",
        "gnis:feature_id": "279619",
        "name": "Buffalo Avenue School"
      }
    },
    {
      "type": "node",
      "id": 358692979,
      "lat": 28.0297447,
      "lon": -82.4328751,
      "tags": {
        "amenity": "school",
        "ele": "11",
        "gnis:feature_id": "279816",
        "name": "Cahoon Elementary School"
      }
    },
    {
      "type": "node",
      "id": 358693772,
      "lat": 28.0139081,
      "lon": -82.4525944,
      "tags": {
        "amenity": "school",
        "ele": "14",
        "gnis:feature_id": "280570",
        "name": "Cleveland School"
      }
    },
    {
      "type": "node",
      "id": 358693875,
      "lat": 27.9783541,
      "lon": -82.4392608,
      "tags": {
        "amenity": "school",
        "ele": "15",
        "gnis:feature_id": "280650",
        "name": "College Hill School"
      }
    },
    {
      "type": "node",
      "id": 358694759,
      "lat": 28.0308519,
      "lon": -82.4528722,
      "tags": {
        "amenity": "school",
        "ele": "8",
        "gnis:feature_id": "281564",
        "name": "Dillard School"
      }
    },
    {
      "type": "node",
      "id": 358694942,
      "lat": 27.9685172,
      "lon": -82.4879626,
      "tags": {
        "ele": "9",
        "gnis:feature_id": "281763",
        "leisure": "park",
        "name": "Drew Playground"
      }
    },
    {
      "type": "node",
      "id": 358696829,
      "lat": 27.9806687,
      "lon": -82.4359509,
      "tags": {
        "ele": "14",
        "gnis:feature_id": "283391",
        "leisure": "park",
        "name": "Green Playground"
      }
    },
    {
      "type": "node",
      "id": 358698040,
      "lat": 27.9755765,
      "lon": -82.4217605,
      "tags": {
        "amenity": "school",
        "ele": "15",
        "gnis:feature_id": "284678",
        "name": "Jackson Heights School"
      }
    },
    {
      "type": "node",
      "id": 358699403,
      "lat": 27.983354,
      "lon": -82.4303719,
      "tags": {
        "amenity": "school",
        "ele": "17",
        "gnis:feature_id": "285931",
        "name": "Lomax School"
      }
    },
    {
      "type": "node",
      "id": 358699548,
      "lat": 27.9922419,
      "lon": -82.5142622,
      "tags": {
        "amenity": "school",
        "education": "school",
        "ele": "8",
        "gnis:feature_id": "286131",
        "name": "Louis Avenue School"
      }
    },
    {
      "type": "node",
      "id": 358699618,
      "lat": 28.0142673,
      "lon": -82.4700304,
      "tags": {
        "ele": "5",
        "gnis:feature_id": "286182",
        "name": "Tampa's Lowry Park Zoo",
        "tourism": "zoo"
      }
    },
    {
      "type": "node",
      "id": 358700203,
      "lat": 27.9930754,
      "lon": -82.4798171,
      "tags": {
        "amenity": "school",
        "ele": "8",
        "gnis:feature_id": "286713",
        "name": "Mendenhall School"
      }
    },
    {
      "type": "node",
      "id": 358700522,
      "lat": 27.9427993,
      "lon": -82.4909284,
      "tags": {
        "amenity": "school",
        "ele": "6",
        "gnis:feature_id": "287018",
        "name": "Mitchell School"
      }
    },
    {
      "type": "node",
      "id": 358700677,
      "lat": 28.0405736,
      "lon": -82.4570388,
      "tags": {
        "amenity": "school",
        "ele": "10",
        "gnis:feature_id": "287187",
        "name": "Most Holy Redeemer School"
      }
    },
    {
      "type": "node",
      "id": 358702217,
      "lat": 27.9736317,
      "lon": -82.4748171,
      "tags": {
        "access": "yes",
        "ele": "6",
        "gnis:feature_id": "287997",
        "leisure": "playground",
        "name": "Oakdale Playground"
      }
    },
    {
      "type": "node",
      "id": 358702472,
      "lat": 27.9752986,
      "lon": -82.440372,
      "tags": {
        "amenity": "school",
        "ele": "14",
        "gnis:feature_id": "288194",
        "name": "Orange Grove School"
      }
    },
    {
      "type": "node",
      "id": 358702699,
      "lat": 27.9243991,
      "lon": -82.4905551,
      "tags": {
        "ele": "4",
        "gnis:feature_id": "288419",
        "leisure": "park",
        "name": "Palma Ciea Playground"
      }
    },
    {
      "type": "node",
      "id": 358704344,
      "lat": 28.0186301,
      "lon": -82.45815,
      "tags": {
        "ele": "8",
        "gnis:feature_id": "289756",
        "leisure": "park",
        "name": "Riverview Terrace Playground"
      }
    },
    {
      "type": "node",
      "id": 358704493,
      "lat": 28.0222412,
      "lon": -82.4237049,
      "tags": {
        "ele": "8",
        "gnis:feature_id": "289924",
        "leisure": "park",
        "name": "Rogers Park"
      }
    },
    {
      "type": "node",
      "id": 358704518,
      "lat": 27.9164113,
      "lon": -82.4978731,
      "tags": {
        "amenity": "school",
        "ele": "5",
        "gnis:feature_id": "289948",
        "name": "Roosevelt School"
      }
    },
    {
      "type": "node",
      "id": 358704625,
      "lat": 28.0255744,
      "lon": -82.4314828,
      "tags": {
        "ele": "11",
        "gnis:feature_id": "290021",
        "leisure": "park",
        "name": "Rowlett Park"
      }
    },
    {
      "type": "node",
      "id": 358704707,
      "lat": 27.9770492,
      "lon": -82.4586314,
      "tags": {
        "addr:city": "Tampa",
        "addr:country": "US",
        "addr:postcode": "33603",
        "addr:state": "FL",
        "addr:street": "N Florida Ave",
        "amenity": "school",
        "ele": "11",
        "gnis:feature_id": "290104",
        "name": "Sacred Heart Academy"
      }
    },
    {
      "type": "node",
      "id": 358707573,
      "lat": 27.9811245,
      "lon": -82.4549159,
      "tags": {
        "addr:city": "Tampa",
        "addr:housenumber": "501",
        "addr:postcode": "33603",
        "addr:state": "FL",
        "addr:street": "East Drive M L K Jr Drive",
        "amenity": "fast_food",
        "brand": "McDonald's",
        "brand:wikidata": "Q38076",
        "cuisine": "burger",
        "drive_through": "yes",
        "ele": "14",
        "gnis:feature_id": "292007",
        "internet_access": "wlan",
        "name": "McDonald's",
        "opening_hours": "05:00-22:00",
        "phone": "+1 813-225-2626",
        "takeaway": "yes",
        "website": "https://www.mcdonalds.com/us/en-us/location/10773.html"
      }
    },
    {
      "type": "node",
      "id": 358707672,
      "lat": 28.0236773,
      "lon": -82.4188201,
      "tags": {
        "ele": "10",
        "gnis:feature_id": "292101",
        "leisure": "park",
        "name": "Temple Crest Park"
      }
    },
    {
      "type": "node",
      "id": 358713033,
      "lat": 27.9780763,
      "lon": -82.4387053,
      "tags": {
        "amenity": "school",
        "ele": "15",
        "gnis:feature_id": "297808",
        "name": "Lockhart Elementary School"
      }
    },
    {
      "type": "node",
      "id": 358713037,
      "lat": 27.9805789,
      "lon": -82.4386867,
      "tags": {
        "amenity": "school",
        "ele": "13",
        "gnis:feature_id": "297809",
        "name": "Young Junior High School"
      }
    },
    {
      "type": "node",
      "id": 358713044,
      "lat": 27.9911316,
      "lon": -82.4100937,
      "tags": {
        "amenity": "school",
        "ele": "19",
        "gnis:feature_id": "297811",
        "name": "James Elementary School"
      }
    },
    {
      "type": "node",
      "id": 358713051,
      "lat": 27.9252999,
      "lon": -82.5175957,
      "tags": {
        "amenity": "school",
        "ele": "3",
        "gnis:feature_id": "297813",
        "name": "Colman Junior High School"
      }
    },
    {
      "type": "node",
      "id": 358713441,
      "lat": 27.9971929,
      "lon": -82.435953,
      "tags": {
        "amenity": "school",
        "ele": "18",
        "gnis:feature_id": "297912",
        "name": "Erwin Area Vocational Technical Center"
      }
    },
    {
      "type": "node",
      "id": 358713449,
      "lat": 27.8744684,
      "lon": -82.5156512,
      "tags": {
        "amenity": "school",
        "ele": "2",
        "gnis:feature_id": "297914",
        "name": "Robinson High School",
        "wikidata": "Q7793507"
      }
    },
    {
      "type": "node",
      "id": 358713497,
      "lat": 28.0266854,
      "lon": -82.4464831,
      "tags": {
        "amenity": "school",
        "ele": "11",
        "gnis:feature_id": "297928",
        "name": "Sulphur Springs Elementary School"
      }
    },
    {
      "type": "node",
      "id": 358713504,
      "lat": 28.0294631,
      "lon": -82.4339829,
      "tags": {
        "amenity": "school",
        "ele": "13",
        "gnis:feature_id": "297930",
        "name": "Van Buren Junior High School"
      }
    },
    {
      "type": "node",
      "id": 358713525,
      "lat": 28.0521464,
      "lon": -82.4413844,
      "tags": {
        "amenity": "school",
        "ele": "12",
        "gnis:feature_id": "297937",
        "name": "Shaw Elementary School"
      }
    },
    {
      "type": "node",
      "id": 358713529,
      "lat": 28.0419624,
      "lon": -82.4648168,
      "tags": {
        "amenity": "school",
        "ele": "9",
        "gnis:feature_id": "297938",
        "name": "Forest Hills Elementary School"
      }
    },
    {
      "type": "node",
      "id": 358718934,
      "lat": 27.9552988,
      "lon": -82.5353739,
      "tags": {
        "amenity": "school",
        "education": "school",
        "ele": "2",
        "gnis:feature_id": "299721",
        "name": "International Academy of Merchandising and Design"
      }
    },
    {
      "type": "node",
      "id": 358718938,
      "lat": 27.9958537,
      "lon": -82.4153716,
      "tags": {
        "amenity": "school",
        "ele": "18",
        "gnis:feature_id": "299722",
        "name": "National Education Center - Tampa Technical Institute"
      }
    },
    {
      "type": "node",
      "id": 358723366,
      "lat": 27.9822422,
      "lon": -82.5164846,
      "tags": {
        "amenity": "place_of_worship",
        "denomination": "baptist",
        "ele": "9",
        "gnis:feature_id": "302022",
        "name": "Drew Park Baptist Temple",
        "religion": "christian"
      }
    },
    {
      "type": "node",
      "id": 358723405,
      "lat": 27.8933644,
      "lon": -82.5027186,
      "tags": {
        "amenity": "place_of_worship",
        "ele": "4",
        "gnis:feature_id": "302036",
        "name": "Bayshore Church of God",
        "religion": "christian"
      }
    },
    {
      "type": "node",
      "id": 358723420,
      "lat": 27.8808571,
      "lon": -82.4914841,
      "tags": {
        "amenity": "place_of_worship",
        "denomination": "lutheran",
        "ele": "2",
        "gnis:feature_id": "302042",
        "name": "Lutheran Church of Our Saviour",
        "religion": "christian"
      }
    },
    {
      "type": "node",
      "id": 358723422,
      "lat": 27.9752981,
      "lon": -82.5164846,
      "tags": {
        "amenity": "place_of_worship",
        "ele": "9",
        "gnis:feature_id": "302043",
        "name": "New Creation Church",
        "religion": "christian"
      }
    },
    {
      "type": "node",
      "id": 358723430,
      "lat": 27.941966,
      "lon": -82.5067621,
      "tags": {
        "amenity": "place_of_worship",
        "denomination": "methodist",
        "ele": "6",
        "gnis:feature_id": "302046",
        "name": "Allen Temple African Methodist Episcopal Church",
        "religion": "christian"
      }
    },
    {
      "type": "node",
      "id": 358723433,
      "lat": 28.0030752,
      "lon": -82.4623168,
      "tags": {
        "amenity": "place_of_worship",
        "ele": "6",
        "gnis:feature_id": "302047",
        "name": "Word of Life Foursquare Church",
        "religion": "christian"
      }
    },
    {
      "type": "node",
      "id": 358723436,
      "lat": 28.0169634,
      "lon": -82.4734281,
      "tags": {
        "amenity": "place_of_worship",
        "ele": "7",
        "gnis:feature_id": "302048",
        "name": "Trinity Evangelical Free Church",
        "religion": "christian"
      }
    },
    {
      "type": "node",
      "id": 358723439,
      "lat": 27.972521,
      "lon": -82.427594,
      "tags": {
        "amenity": "place_of_worship",
        "ele": "14",
        "gnis:feature_id": "302049",
        "name": "Epiphany of Our Lord Church",
        "religion": "christian"
      }
    },
    {
      "type": "node",
      "id": 358723442,
      "lat": 27.9739098,
      "lon": -82.4303719,
      "tags": {
        "amenity": "place_of_worship",
        "denomination": "catholic",
        "ele": "14",
        "gnis:feature_id": "302050",
        "name": "Good Shepherd Catholic Church",
        "religion": "christian"
      }
    },
    {
      "type": "node",
      "id": 358723444,
      "lat": 28.0077111,
      "lon": -82.4425372,
      "tags": {
        "amenity": "place_of_worship",
        "ele": "17",
        "gnis:feature_id": "302051",
        "name": "Saint Francis Episcopal Church",
        "religion": "christian"
      }
    },
    {
      "type": "node",
      "id": 358723446,
      "lat": 28.005853,
      "lon": -82.4539834,
      "tags": {
        "amenity": "place_of_worship",
        "denomination": "lutheran",
        "ele": "12",
        "gnis:feature_id": "302052",
        "name": "Faith Lutheran Church",
        "religion": "christian"
      }
    },
    {
      "type": "node",
      "id": 358723449,
      "lat": 27.9739098,
      "lon": -82.4287051,
      "tags": {
        "amenity": "place_of_worship",
        "ele": "15",
        "gnis:feature_id": "302053",
        "name": "Most Holy Redeemer Church",
        "religion": "christian"
      }
    },
    {
      "type": "node",
      "id": 358723452,
      "lat": 28.0170101,
      "lon": -82.4160173,
      "tags": {
        "amenity": "place_of_worship",
        "ele": "6",
        "gnis:feature_id": "302054",
        "name": "Saint John the Divine Episcopal Church",
        "religion": "christian"
      }
    },
    {
      "type": "node",
      "id": 358723455,
      "lat": 27.9752987,
      "lon": -82.4289829,
      "tags": {
        "amenity": "place_of_worship",
        "ele": "15",
        "gnis:feature_id": "302055",
        "name": "Our Lady of Perpetual Help Church",
        "religion": "christian"
      }
    },
    {
      "type": "node",
      "id": 358723458,
      "lat": 27.9197445,
      "lon": -82.5039843,
      "tags": {
        "amenity": "place_of_worship",
        "denomination": "lutheran",
        "ele": "5",
        "gnis:feature_id": "302056",
        "name": "Good Shepherd Lutheran Church",
        "religion": "christian"
      }
    },
    {
      "type": "node",
      "id": 358723465,
      "lat": 27.9739098,
      "lon": -82.4345385,
      "tags": {
        "amenity": "place_of_worship",
        "denomination": "catholic",
        "ele": "14",
        "gnis:feature_id": "302058",
        "name": "Resurrection Catholic Church",
        "religion": "christian"
      }
    },
    {
      "type": "node",
      "id": 358723468,
      "lat": 28.0101641,
      "lon": -82.4756156,
      "tags": {
        "amenity": "place_of_worship",
        "religion": "christian"
      }
    },
    {
      "type": "node",
      "id": 358723472,
      "lat": 27.9933537,
      "lon": -82.4220383,
      "tags": {
        "amenity": "place_of_worship",
        "denomination": "catholic",
        "ele": "18",
        "gnis:feature_id": "302060",
        "name": "Saint Andres Catholic Church",
        "religion": "christian"
      }
    },
    {
      "type": "node",
      "id": 358723474,
      "lat": 27.9335419,
      "lon": -82.4942771,
      "tags": {
        "amenity": "place_of_worship",
        "denomination": "catholic",
        "ele": "6",
        "gnis:feature_id": "302061",
        "name": "Saint Lawrence Catholic Church",
        "religion": "christian"
      }
    },
    {
      "type": "node",
      "id": 358723476,
      "lat": 27.9447436,
      "lon": -82.4998175,
      "tags": {
        "amenity": "place_of_worship",
        "denomination": "catholic",
        "ele": "6",
        "gnis:feature_id": "302062",
        "name": "Saint Marys Catholic Church",
        "religion": "christian"
      }
    },
    {
      "type": "node",
      "id": 358723479,
      "lat": 27.8904655,
      "lon": -82.4862678,
      "tags": {
        "amenity": "place_of_worship",
        "denomination": "catholic",
        "ele": "1",
        "gnis:feature_id": "302063",
        "name": "Saint Patricks Catholic Church",
        "religion": "christian"
      }
    },
    {
      "type": "node",
      "id": 358723488,
      "lat": 28.0056947,
      "lon": -82.4433759,
      "tags": {
        "amenity": "place_of_worship",
        "ele": "17",
        "gnis:feature_id": "302066",
        "name": "Maranatha Chapel",
        "religion": "christian"
      }
    },
    {
      "type": "node",
      "id": 358723495,
      "lat": 27.9822425,
      "lon": -82.4706503,
      "tags": {
        "amenity": "place_of_worship",
        "ele": "6",
        "gnis:feature_id": "302068",
        "name": "Northwest Christian Church",
        "religion": "christian"
      }
    },
    {
      "type": "node",
      "id": 358723497,
      "lat": 27.9877978,
      "lon": -82.4887062,
      "tags": {
        "amenity": "place_of_worship",
        "ele": "11",
        "gnis:feature_id": "302069",
        "name": "North Street Church of Christ",
        "religion": "christian"
      }
    },
    {
      "type": "node",
      "id": 358723500,
      "lat": 27.9614099,
      "lon": -82.4789838,
      "tags": {
        "amenity": "place_of_worship",
        "ele": "8",
        "gnis:feature_id": "302070",
        "name": "Northwest Tampa Church of Christ",
        "religion": "christian"
      }
    },
    {
      "type": "node",
      "id": 358723504,
      "lat": 27.8905789,
      "lon": -82.5039843,
      "tags": {
        "amenity": "place_of_worship",
        "ele": "3",
        "gnis:feature_id": "302071",
        "name": "Harmony Metaphysical Church",
        "religion": "christian"
      }
    },
    {
      "type": "node",
      "id": 358723513,
      "lat": 28.0005753,
      "lon": -82.459539,
      "tags": {
        "amenity": "place_of_worship",
        "denomination": "lutheran",
        "ele": "7",
        "gnis:feature_id": "302074",
        "name": "Apostles Lutheran Church",
        "religion": "christian"
      }
    },
    {
      "type": "node",
      "id": 358723525,
      "lat": 27.9766875,
      "lon": -82.4289829,
      "tags": {
        "amenity": "place_of_worship",
        "ele": "16",
        "gnis:feature_id": "302078",
        "name": "Saint Johns Greek Orthodox Church",
        "religion": "christian"
      }
    },
    {
      "type": "node",
      "id": 358723537,
      "lat": 27.9919649,
      "lon": -82.4206494,
      "tags": {
        "amenity": "place_of_worship",
        "ele": "17",
        "gnis:feature_id": "302082",
        "name": "Saint Cecilia Episcopal Church",
        "religion": "christian"
      }
    },
    {
      "type": "node",
      "id": 358723540,
      "lat": 27.9766876,
      "lon": -82.4234272,
      "tags": {
        "amenity": "place_of_worship",
        "ele": "15",
        "gnis:feature_id": "302083",
        "name": "Saint Catherines Episcopal Church",
        "religion": "christian"
      }
    },
    {
      "type": "node",
      "id": 358723544,
      "lat": 27.9211334,
      "lon": -82.4992619,
      "tags": {
        "amenity": "place_of_worship",
        "ele": "5",
        "gnis:feature_id": "302084",
        "name": "Palma Ceia Christian Church",
        "religion": "christian"
      }
    },
    {
      "type": "node",
      "id": 358723563,
      "lat": 27.9794655,
      "lon": -82.3998157,
      "tags": {
        "amenity": "place_of_worship",
        "denomination": "baptist",
        "ele": "16",
        "gnis:feature_id": "302092",
        "name": "Good Shepherd Baptist Church",
        "religion": "christian"
      }
    },
    {
      "type": "node",
      "id": 358723565,
      "lat": 27.9628981,
      "lon": -82.403527,
      "tags": {
        "amenity": "place_of_worship",
        "denomination": "baptist",
        "ele": "11",
        "gnis:feature_id": "302093",
        "name": "Oak Park Baptist Church",
        "religion": "christian"
      }
    },
    {
      "type": "node",
      "id": 358723576,
      "lat": 27.9961311,
      "lon": -82.4414832,
      "tags": {
        "amenity": "place_of_worship",
        "denomination": "baptist",
        "ele": "17",
        "gnis:feature_id": "302097",
        "name": "Philadelphia Missionary Baptist Church",
        "religion": "christian"
      }
    },
    {
      "type": "node",
      "id": 358723579,
      "lat": 27.9836316,
      "lon": -82.4387053,
      "tags": {
        "amenity": "place_of_worship",
        "ele": "13",
        "gnis:feature_id": "302098",
        "name": "Primera Iglesia Bautista",
        "religion": "christian"
      }
    },
    {
      "type": "node",
      "id": 358723584,
      "lat": 27.9461326,
      "lon": -82.4831505,
      "tags": {
        "amenity": "place_of_worship",
        "ele": "6",
        "gnis:feature_id": "302100",
        "name": "Saint Johns Baptist Church",
        "religion": "christian"
      }
    },
    {
      "type": "node",
      "id": 358723591,
      "lat": 27.9003008,
      "lon": -82.4984286,
      "tags": {
        "amenity": "place_of_worship",
        "denomination": "baptist",
        "ele": "3",
        "gnis:feature_id": "302103",
        "name": "Solid Rock First United Evangelistic Baptist Church",
        "religion": "christian"
      }
    },
    {
      "type": "node",
      "id": 358723594,
      "lat": 27.9627993,
      "lon": -82.4012046,
      "tags": {
        "amenity": "place_of_worship",
        "denomination": "baptist",
        "ele": "11",
        "gnis:feature_id": "302104",
        "name": "New Salem Missionary Baptist Church",
        "religion": "christian"
      }
    },
    {
      "type": "node",
      "id": 358723603,
      "lat": 27.9752984,
      "lon": -82.4623168,
      "tags": {
        "amenity": "place_of_worship",
        "denomination": "baptist",
        "ele": "10",
        "gnis:feature_id": "302107",
        "name": "New Bethel Progressive Missionary Baptist Church",
        "religion": "christian"
      }
    },
    {
      "type": "node",
      "id": 358723607,
      "lat": 27.9919644,
      "lon": -82.4789838,
      "tags": {
        "amenity": "place_of_worship",
        "denomination": "baptist",
        "ele": "7",
        "gnis:feature_id": "302108",
        "name": "Mount Pleasant Baptist Church",
        "religion": "christian"
      }
    },
    {
      "type": "node",
      "id": 358723610,
      "lat": 27.9947422,
      "lon": -82.4553723,
      "tags": {
        "amenity": "place_of_worship",
        "denomination": "baptist",
        "ele": "13",
        "gnis:feature_id": "302109",
        "name": "Mount Olive Baptist Church",
        "religion": "christian"
      }
    },
    {
      "type": "node",
      "id": 358723613,
      "lat": 27.987798,
      "lon": -82.459539,
      "tags": {
        "amenity": "place_of_worship",
        "denomination": "baptist",
        "ele": "7",
        "gnis:feature_id": "302110",
        "name": "Macedonia Missionary Baptist Church",
        "religion": "christian"
      }
    },
    {
      "type": "node",
      "id": 358723620,
      "lat": 27.9836314,
      "lon": -82.4587057,
      "tags": {
        "amenity": "place_of_worship",
        "denomination": "baptist",
        "ele": "12",
        "gnis:feature_id": "302112",
        "name": "Greater Morning Star Baptist Church",
        "religion": "christian"
      }
    },
    {
      "type": "node",
      "id": 358723630,
      "lat": 27.9711316,
      "lon": -82.4995397,
      "tags": {
        "amenity": "place_of_worship",
        "denomination": "baptist",
        "ele": "11",
        "gnis:feature_id": "302114",
        "name": "Friendly Missionary Baptist Church",
        "religion": "christian"
      }
    },
    {
      "type": "node",
      "id": 358723633,
      "lat": 27.9728381,
      "lon": -82.4221006,
      "tags": {
        "amenity": "place_of_worship",
        "denomination": "baptist",
        "ele": "15",
        "gnis:feature_id": "302115",
        "name": "Saint Johns Missionary Baptist Church",
        "religion": "christian"
      }
    },
    {
      "type": "node",
      "id": 358723636,
      "lat": 27.960021,
      "lon": -82.4803728,
      "tags": {
        "amenity": "place_of_worship",
        "denomination": "baptist",
        "ele": "8",
        "gnis:feature_id": "302116",
        "name": "Emmanuel Missionary Baptist Church",
        "religion": "christian"
      }
    },
    {
      "type": "node",
      "id": 358723649,
      "lat": 27.9669672,
      "lon": -82.4289865,
      "tags": {
        "amenity": "place_of_worship",
        "denomination": "baptist",
        "ele": "9",
        "gnis:feature_id": "302120",
        "name": "Beulah Baptist Church",
        "religion": "christian"
      }
    },
    {
      "type": "node",
      "id": 358723653,
      "lat": 27.8919679,
      "lon": -82.4859284,
      "tags": {
        "amenity": "place_of_worship",
        "denomination": "baptist",
        "ele": "0",
        "gnis:feature_id": "302121",
        "name": "Ballast Point Baptist Church",
        "religion": "christian"
      }
    },
    {
      "type": "node",
      "id": 358723655,
      "lat": 27.9997424,
      "lon": -82.4081492,
      "tags": {
        "amenity": "place_of_worship",
        "denomination": "pentecostal",
        "ele": "16",
        "gnis:feature_id": "302122",
        "name": "The First Christian Fellowship Assembly of God Church",
        "religion": "christian"
      }
    },
    {
      "type": "node",
      "id": 358723658,
      "lat": 27.9878644,
      "lon": -82.4405588,
      "tags": {
        "amenity": "place_of_worship",
        "denomination": "pentecostal",
        "ele": "15",
        "gnis:feature_id": "302123",
        "name": "Temple Terrace First Assembly of God Church",
        "religion": "christian"
      }
    },
    {
      "type": "node",
      "id": 358723663,
      "lat": 28.0002974,
      "lon": -82.476206,
      "tags": {
        "amenity": "place_of_worship",
        "denomination": "pentecostal",
        "ele": "6",
        "gnis:feature_id": "302126",
        "name": "Northside Assembly of God Church",
        "religion": "christian"
      }
    },
    {
      "type": "node",
      "id": 358723665,
      "lat": 27.9836316,
      "lon": -82.4400942,
      "tags": {
        "amenity": "place_of_worship",
        "ele": "15",
        "gnis:feature_id": "302127",
        "name": "Iglesia Missionera Asamblea de Dios",
        "religion": "christian"
      }
    },
    {
      "type": "node",
      "id": 358723670,
      "lat": 27.9989087,
      "lon": -82.459539,
      "tags": {
        "amenity": "place_of_worship",
        "denomination": "pentecostal",
        "ele": "8",
        "gnis:feature_id": "302129",
        "name": "First Assembly of God Church",
        "religion": "christian"
      }
    },
    {
      "type": "node",
      "id": 358723676,
      "lat": 27.979465,
      "lon": -82.4553723,
      "tags": {
        "amenity": "place_of_worship",
        "denomination": "pentecostal",
        "ele": "12",
        "gnis:feature_id": "302131",
        "name": "Evangel Temple Assembly of God Church",
        "religion": "christian"
      }
    },
    {
      "type": "node",
      "id": 358723679,
      "lat": 27.9959977,
      "lon": -82.4873095,
      "tags": {
        "amenity": "place_of_worship",
        "denomination": "pentecostal",
        "ele": "13",
        "gnis:feature_id": "302132",
        "name": "Bethel Temple Assembly of God Church",
        "religion": "christian"
      }
    },
    {
      "type": "node",
      "id": 358723683,
      "lat": 27.9989295,
      "lon": -82.4513652,
      "tags": {
        "amenity": "place_of_worship",
        "denomination": "pentecostal",
        "ele": "12",
        "gnis:feature_id": "302133",
        "name": "Assembly of God Church Glad Tidings",
        "religion": "christian"
      }
    },
    {
      "type": "node",
      "id": 358723686,
      "lat": 27.9794651,
      "lon": -82.4456498,
      "tags": {
        "amenity": "place_of_worship",
        "denomination": "pentecostal",
        "ele": "14",
        "gnis:feature_id": "302134",
        "name": "Assembly of God Church Bethel Temple",
        "religion": "christian"
      }
    },
    {
      "type": "node",
      "id": 358723690,
      "lat": 27.9794649,
      "lon": -82.4720392,
      "tags": {
        "amenity": "place_of_worship",
        "denomination": "pentecostal",
        "ele": "6",
        "gnis:feature_id": "302135",
        "name": "Abundant Life Assembly of God Church",
        "religion": "christian"
      }
    },
    {
      "type": "node",
      "id": 358725093,
      "lat": 27.9414104,
      "lon": -82.5075955,
      "tags": {
        "amenity": "school",
        "ele": "6",
        "gnis:feature_id": "302587",
        "name": "Robert McCord Oral School"
      }
    },
    {
      "type": "node",
      "id": 358725102,
      "lat": 27.9247444,
      "lon": -82.4884284,
      "tags": {
        "amenity": "school",
        "ele": "2",
        "gnis:feature_id": "302590",
        "name": "Palma Ceia United Methodist Day School"
      }
    },
    {
      "type": "node",
      "id": 358725105,
      "lat": 27.9964089,
      "lon": -82.4425943,
      "tags": {
        "amenity": "school",
        "ele": "16",
        "gnis:feature_id": "302591",
        "name": "Northside Christian Academy"
      }
    },
    {
      "type": "node",
      "id": 358725110,
      "lat": 27.9339108,
      "lon": -82.4834283,
      "tags": {
        "amenity": "school",
        "ele": "5",
        "gnis:feature_id": "302593",
        "name": "New World Academy"
      }
    },
    {
      "type": "node",
      "id": 358725119,
      "lat": 27.9925201,
      "lon": -82.4503722,
      "tags": {
        "amenity": "school",
        "ele": "14",
        "gnis:feature_id": "302596",
        "name": "Montessori House"
      }
    },
    {
      "type": "node",
      "id": 358725154,
      "lat": 27.9119671,
      "lon": -82.5073177,
      "tags": {
        "amenity": "school",
        "ele": "4",
        "gnis:feature_id": "302607",
        "name": "Holy Trinity Lutheran School"
      }
    },
    {
      "type": "node",
      "id": 358725163,
      "lat": 28.0339071,
      "lon": -82.4800949,
      "tags": {
        "amenity": "school",
        "ele": "14",
        "gnis:feature_id": "302610",
        "name": "Greenacres Country Day School"
      }
    },
    {
      "type": "node",
      "id": 358725169,
      "lat": 28.0036309,
      "lon": -82.4356497,
      "tags": {
        "amenity": "school",
        "ele": "20",
        "gnis:feature_id": "302612",
        "name": "Glorious Christian Academy"
      }
    },
    {
      "type": "node",
      "id": 358725183,
      "lat": 28.0458512,
      "lon": -82.4539832,
      "tags": {
        "amenity": "school",
        "ele": "8",
        "gnis:feature_id": "302617",
        "name": "University Academy"
      }
    },
    {
      "type": "node",
      "id": 358725193,
      "lat": 28.0047421,
      "lon": -82.4189828,
      "tags": {
        "amenity": "school",
        "ele": "14",
        "gnis:feature_id": "302621",
        "name": "Campbell Academy for the Gifted"
      }
    },
    {
      "type": "node",
      "id": 358725215,
      "lat": 28.0439067,
      "lon": -82.4639834,
      "tags": {
        "amenity": "school",
        "ele": "9",
        "gnis:feature_id": "302628",
        "name": "West Hillsborough Baptist School"
      }
    },
    {
      "type": "node",
      "id": 358725222,
      "lat": 27.915578,
      "lon": -82.5059288,
      "tags": {
        "amenity": "school",
        "ele": "4",
        "gnis:feature_id": "302630",
        "name": "Villa Rosa Preschool"
      }
    },
    {
      "type": "node",
      "id": 358725224,
      "lat": 28.0266854,
      "lon": -82.4489832,
      "tags": {
        "amenity": "school",
        "ele": "5",
        "gnis:feature_id": "302631",
        "name": "Under the Rainbow Montessori Learning Center"
      }
    },
    {
      "type": "node",
      "id": 358725229,
      "lat": 28.026289,
      "lon": -82.4104199,
      "tags": {
        "amenity": "school",
        "ele": "17",
        "gnis:feature_id": "302632",
        "name": "Tryon School"
      }
    },
    {
      "type": "node",
      "id": 358725239,
      "lat": 27.9830763,
      "lon": -82.4220383,
      "tags": {
        "amenity": "school",
        "ele": "16",
        "gnis:feature_id": "302635",
        "name": "Tampa Preparatory School"
      }
    },
    {
      "type": "node",
      "id": 358725242,
      "lat": 27.891968,
      "lon": -82.4695392,
      "tags": {
        "amenity": "school",
        "ele": "-3",
        "gnis:feature_id": "302636",
        "name": "Tampa Marine Institute"
      }
    },
    {
      "type": "node",
      "id": 358725245,
      "lat": 28.0366851,
      "lon": -82.40926,
      "tags": {
        "amenity": "school",
        "ele": "13",
        "gnis:feature_id": "302637",
        "name": "Tampa Christian Academy"
      }
    },
    {
      "type": "node",
      "id": 358725247,
      "lat": 27.9933533,
      "lon": -82.4739837,
      "tags": {
        "amenity": "school",
        "ele": "7",
        "gnis:feature_id": "302638",
        "name": "Tampa Catholic High School"
      }
    },
    {
      "type": "node",
      "id": 358725252,
      "lat": 27.9766877,
      "lon": -82.4009268,
      "tags": {
        "amenity": "school",
        "ele": "14",
        "gnis:feature_id": "302639",
        "name": "Senczszyn Christian Academy"
      }
    },
    {
      "type": "node",
      "id": 358725255,
      "lat": 27.9969643,
      "lon": -82.472317,
      "tags": {
        "amenity": "school",
        "ele": "6",
        "gnis:feature_id": "302640",
        "name": "Seffner Hills Academy"
      }
    },
    {
      "type": "node",
      "id": 358725519,
      "lat": 27.8786349,
      "lon": -82.4939841,
      "tags": {
        "amenity": "school",
        "ele": "2",
        "gnis:feature_id": "302750",
        "name": "Bayshore Christian School"
      }
    },
    {
      "type": "node",
      "id": 358725522,
      "lat": 27.8789128,
      "lon": -82.4848172,
      "tags": {
        "amenity": "school",
        "ele": "0",
        "gnis:feature_id": "302751",
        "name": "Ballast Point Christian School"
      }
    },
    {
      "type": "node",
      "id": 358725529,
      "lat": 27.9254291,
      "lon": -82.5149779,
      "tags": {
        "amenity": "school",
        "ele": "0",
        "gnis:feature_id": "302754",
        "name": "Palma Ceia Academy"
      }
    },
    {
      "type": "node",
      "id": 358725531,
      "lat": 27.9377994,
      "lon": -82.5087066,
      "tags": {
        "amenity": "school",
        "ele": "5",
        "gnis:feature_id": "302755",
        "name": "Saint Johns Greek Orthodox Day School"
      }
    },
    {
      "type": "node",
      "id": 358725537,
      "lat": 27.9966862,
      "lon": -82.5025954,
      "tags": {
        "amenity": "school",
        "education": "school",
        "ele": "8",
        "gnis:feature_id": "302758",
        "name": "Academic Achievement Center"
      }
    },
    {
      "type": "node",
      "id": 358725541,
      "lat": 28.0539063,
      "lon": -82.4792615,
      "tags": {
        "amenity": "school",
        "ele": "14",
        "gnis:feature_id": "302760",
        "name": "Kiddie Korral Achievement Center"
      }
    },
    {
      "type": "node",
      "id": 358725545,
      "lat": 28.0111304,
      "lon": -82.4598168,
      "tags": {
        "amenity": "school",
        "ele": "9",
        "gnis:feature_id": "302762",
        "name": "Spencer Memorial Baptist"
      }
    },
    {
      "type": "node",
      "id": 358725553,
      "lat": 28.0394625,
      "lon": -82.4789838,
      "tags": {
        "amenity": "school",
        "ele": "15",
        "gnis:feature_id": "302765",
        "name": "Mother Goose Nursery and Kindergarden"
      }
    },
    {
      "type": "node",
      "id": 358725556,
      "lat": 28.0405735,
      "lon": -82.4739837,
      "tags": {
        "amenity": "school",
        "ele": "13",
        "gnis:feature_id": "302766",
        "name": "Northgate Baptist School"
      }
    },
    {
      "type": "node",
      "id": 358725559,
      "lat": 28.0402959,
      "lon": -82.4348161,
      "tags": {
        "amenity": "school",
        "ele": "8",
        "gnis:feature_id": "302767",
        "name": "Morning Star School"
      }
    },
    {
      "type": "node",
      "id": 358725566,
      "lat": 28.0405736,
      "lon": -82.4573166,
      "tags": {
        "addr:housenumber": "10110",
        "addr:postcode": "33612",
        "addr:street": "N. Central Ave",
        "amenity": "school",
        "ele": "10",
        "gnis:feature_id": "302769",
        "name": "Legacy"
      }
    },
    {
      "type": "node",
      "id": 358725571,
      "lat": 27.9150225,
      "lon": -82.4923174,
      "tags": {
        "amenity": "school",
        "ele": "3",
        "gnis:feature_id": "302771",
        "name": "Academy of the Holy Names High School"
      }
    },
    {
      "type": "node",
      "id": 358735410,
      "lat": 27.9397438,
      "lon": -82.5067621,
      "tags": {
        "amenity": "school",
        "ele": "6",
        "gnis:feature_id": "308527",
        "name": "Jewish Community Center Preschool"
      }
    },
    {
      "type": "node",
      "id": 358744482,
      "lat": 28.113841,
      "lon": -82.392163,
      "tags": {
        "addr:housenumber": "16541",
        "addr:postcode": "33647",
        "addr:street": "Tampa Palms Boulevard West",
        "amenity": "school",
        "ele": "10",
        "gnis:feature_id": "2107560",
        "name": "Lawton Chiles Elementary School",
        "opening_hours": "Mo-Fr 07:40-13:55",
        "operator": "Hillsborough County",
        "phone": "+1-813-558-5422",
        "website": "https://www.hillsboroughschools.org/chiles"
      }
    },
    {
      "type": "node",
      "id": 358757034,
      "lat": 27.9685806,
      "lon": -82.4627029,
      "tags": {
        "addr:city": "Tampa",
        "addr:country": "US",
        "addr:postcode": "33602",
        "addr:state": "FL",
        "addr:street": "N Highland Ave",
        "amenity": "place_of_worship",
        "ele": "12",
        "gnis:feature_id": "2481044",
        "name": "Highland Avenue Church of Christ",
        "religion": "christian"
      }
    },
    {
      "type": "node",
      "id": 358757042,
      "lat": 27.939697,
      "lon": -82.499048,
      "tags": {
        "amenity": "place_of_worship",
        "ele": "6",
        "gnis:feature_id": "2481047",
        "name": "Church of Christ on Henderson Boulevard",
        "religion": "christian"
      }
    },
    {
      "type": "node",
      "id": 358757046,
      "lat": 27.987705,
      "lon": -82.451407,
      "tags": {
        "amenity": "place_of_worship",
        "ele": "16",
        "gnis:feature_id": "2481048",
        "name": "Church of Christ on Nebraska Avenue",
        "religion": "christian"
      }
    },
    {
      "type": "node",
      "id": 358757055,
      "lat": 27.9674,
      "lon": -82.4893,
      "tags": {
        "amenity": "place_of_worship",
        "ele": "10",
        "gnis:feature_id": "2481051",
        "name": "Church of Scientology",
        "religion": "scientologist"
      }
    },
    {
      "type": "node",
      "id": 358757058,
      "lat": 27.9414,
      "lon": -82.4831,
      "tags": {
        "amenity": "place_of_worship",
        "ele": "6",
        "gnis:feature_id": "2481052",
        "name": "Church of Scientology of Hyde Park",
        "religion": "scientologist"
      }
    },
    {
      "type": "node",
      "id": 358757065,
      "lat": 27.9819,
      "lon": -82.427,
      "tags": {
        "amenity": "place_of_worship",
        "ele": "17",
        "gnis:feature_id": "2481054",
        "name": "Church of the Kingdom of God",
        "religion": "christian"
      }
    },
    {
      "type": "node",
      "id": 358757067,
      "lat": 27.983585,
      "lon": -82.435129,
      "tags": {
        "amenity": "place_of_worship",
        "ele": "17",
        "gnis:feature_id": "2481055",
        "name": "Church of the Living God",
        "religion": "christian"
      }
    },
    {
      "type": "node",
      "id": 358757085,
      "lat": 28.0183,
      "lon": -82.473,
      "tags": {
        "amenity": "place_of_worship",
        "ele": "7",
        "gnis:feature_id": "2481061",
        "name": "Crossover Community Church",
        "religion": "christian"
      }
    },
    {
      "type": "node",
      "id": 358757106,
      "lat": 28.0102,
      "lon": -82.4102,
      "tags": {
        "amenity": "place_of_worship",
        "ele": "8",
        "gnis:feature_id": "2481069",
        "name": "Faith Community United Church",
        "religion": "christian"
      }
    },
    {
      "type": "node",
      "id": 358757114,
      "lat": 27.9903,
      "lon": -82.4418,
      "tags": {
        "amenity": "place_of_worship",
        "ele": "17",
        "gnis:feature_id": "2481074",
        "name": "Faith Temple Church of God",
        "religion": "christian"
      }
    },
    {
      "type": "node",
      "id": 358757149,
      "lat": 27.979,
      "lon": -82.4279,
      "tags": {
        "amenity": "place_of_worship",
        "ele": "17",
        "gnis:feature_id": "2481088",
        "name": "First Born Church of the Living God",
        "religion": "christian"
      }
    },
    {
      "type": "node",
      "id": 358757170,
      "lat": 27.9844,
      "lon": -82.4192,
      "tags": {
        "amenity": "place_of_worship",
        "ele": "17",
        "gnis:feature_id": "2481094",
        "name": "First Community Christian Church",
        "religion": "christian"
      }
    },
    {
      "type": "node",
      "id": 358757172,
      "lat": 27.9608023,
      "lon": -82.4218036,
      "tags": {
        "amenity": "place_of_worship",
        "denomination": "baptist",
        "ele": "4",
        "gnis:feature_id": "2481095",
        "name": "First John Missionary Baptist Church",
        "religion": "christian"
      }
    },
    {
      "type": "node",
      "id": 358757176,
      "lat": 27.9855,
      "lon": -82.4308,
      "tags": {
        "amenity": "place_of_worship",
        "denomination": "methodist",
        "ele": "17",
        "gnis:feature_id": "2481096",
        "name": "First Mount Carmel African Methodist Episcopal Church",
        "religion": "christian"
      }
    },
    {
      "type": "node",
      "id": 358757238,
      "lat": 28.0365531,
      "lon": -82.4746333,
      "tags": {
        "amenity": "place_of_worship",
        "ele": "9",
        "gnis:feature_id": "2481116",
        "name": "Great Hope Christian Fellowship Church",
        "religion": "christian"
      }
    },
    {
      "type": "node",
      "id": 358757262,
      "lat": 27.9892,
      "lon": -82.4279,
      "tags": {
        "amenity": "place_of_worship",
        "ele": "16",
        "gnis:feature_id": "2481124",
        "name": "Holy Outreach Church",
        "religion": "christian"
      }
    },
    {
      "type": "node",
      "id": 358757265,
      "lat": 27.953406,
      "lon": -82.511998,
      "tags": {
        "amenity": "place_of_worship",
        "ele": "6",
        "gnis:feature_id": "2481403",
        "name": "Abundant Life Church of God",
        "religion": "christian"
      }
    },
    {
      "type": "node",
      "id": 358757278,
      "lat": 27.982102,
      "lon": -82.435205,
      "tags": {
        "amenity": "place_of_worship",
        "ele": "17",
        "gnis:feature_id": "2481408",
        "name": "Anointing Christian Fellowship Church",
        "religion": "christian"
      }
    },
    {
      "type": "node",
      "id": 358757280,
      "lat": 27.9891,
      "lon": -82.4287,
      "tags": {
        "amenity": "place_of_worship",
        "ele": "16",
        "gnis:feature_id": "2481409",
        "name": "Apostolic Church of Jesus",
        "religion": "christian"
      }
    },
    {
      "type": "node",
      "id": 358757306,
      "lat": 27.998555,
      "lon": -82.425865,
      "tags": {
        "amenity": "place_of_worship",
        "ele": "17",
        "gnis:feature_id": "2481418",
        "name": "Belmont Heights Church of Christ",
        "religion": "christian"
      }
    },
    {
      "type": "node",
      "id": 358757340,
      "lat": 27.8785,
      "lon": -82.5068,
      "tags": {
        "amenity": "place_of_worship",
        "ele": "3",
        "gnis:feature_id": "2481431",
        "name": "Bread of Life International Church",
        "religion": "christian"
      }
    },
    {
      "type": "node",
      "id": 358757347,
      "lat": 27.975067,
      "lon": -82.4330902,
      "tags": {
        "amenity": "place_of_worship",
        "ele": "15",
        "gnis:feature_id": "2481433",
        "name": "Brown Temple Church of God",
        "religion": "christian"
      }
    },
    {
      "type": "node",
      "id": 358757372,
      "lat": 28.002357,
      "lon": -82.484062,
      "tags": {
        "amenity": "place_of_worship",
        "denomination": "methodist",
        "ele": "12",
        "gnis:feature_id": "2481441",
        "name": "Celebration Free Methodist Church",
        "religion": "christian"
      }
    },
    {
      "type": "node",
      "id": 358757394,
      "lat": 27.9761,
      "lon": -82.4278,
      "tags": {
        "amenity": "place_of_worship",
        "ele": "16",
        "gnis:feature_id": "2481449",
        "name": "Children of God Pentecostal Church",
        "religion": "christian"
      }
    },
    {
      "type": "node",
      "id": 358757407,
      "lat": 27.9895976,
      "lon": -82.4221945,
      "tags": {
        "amenity": "place_of_worship",
        "ele": "17",
        "gnis:feature_id": "2481673",
        "name": "Holy Tabernacle Lighthouse of God Church",
        "religion": "christian"
      }
    },
    {
      "type": "node",
      "id": 358757424,
      "lat": 27.9196,
      "lon": -82.5169,
      "tags": {
        "amenity": "place_of_worship",
        "ele": "3",
        "gnis:feature_id": "2481679",
        "name": "House of Hope Church",
        "religion": "christian"
      }
    },
    {
      "type": "node",
      "id": 358757433,
      "lat": 27.9414091,
      "lon": -82.4654563,
      "tags": {
        "addr:city": "Tampa",
        "addr:country": "US",
        "addr:postcode": "33606",
        "addr:state": "FL",
        "addr:street": "W Platt St",
        "amenity": "place_of_worship",
        "denomination": "methodist",
        "gnis:feature_id": "2481682",
        "name": "Hyde Park United Methodist Church",
        "religion": "christian"
      }
    },
    {
      "type": "node",
      "id": 358757473,
      "lat": 27.9796,
      "lon": -82.416,
      "tags": {
        "amenity": "place_of_worship",
        "ele": "14",
        "gnis:feature_id": "2481695",
        "name": "Jackson Heights Church of Christ",
        "religion": "christian"
      }
    },
    {
      "type": "node",
      "id": 358757478,
      "lat": 27.9729,
      "lon": -82.4304,
      "tags": {
        "amenity": "place_of_worship",
        "ele": "14",
        "gnis:feature_id": "2481697",
        "name": "Kingdom of God and Christ Church",
        "religion": "christian"
      }
    },
    {
      "type": "node",
      "id": 358757482,
      "lat": 28.002762,
      "lon": -82.462663,
      "tags": {
        "amenity": "place_of_worship",
        "denomination": "baptist",
        "ele": "4",
        "gnis:feature_id": "2481698",
        "name": "Korean First Baptist Mission",
        "religion": "christian"
      }
    },
    {
      "type": "node",
      "id": 358757505,
      "lat": 27.9883801,
      "lon": -82.4426839,
      "tags": {
        "amenity": "place_of_worship",
        "ele": "16",
        "gnis:feature_id": "2481707",
        "name": "Light of the World Church",
        "religion": "christian"
      }
    },
    {
      "type": "node",
      "id": 358757581,
      "lat": 28.0421208,
      "lon": -82.450904,
      "tags": {
        "amenity": "place_of_worship",
        "ele": "8",
        "gnis:feature_id": "2481731",
        "name": "New Life Full Gospel Church",
        "religion": "christian"
      }
    },
    {
      "type": "node",
      "id": 358757584,
      "lat": 27.977985,
      "lon": -82.40036,
      "tags": {
        "amenity": "place_of_worship",
        "ele": "15",
        "gnis:feature_id": "2481732",
        "name": "New Life Holiness Church",
        "religion": "christian"
      }
    },
    {
      "type": "node",
      "id": 358757587,
      "lat": 28.0467891,
      "lon": -82.4319862,
      "tags": {
        "amenity": "place_of_worship",
        "ele": "8",
        "gnis:feature_id": "2481733",
        "name": "New Life Tabernacle United Pentecostal Church",
        "religion": "christian"
      }
    },
    {
      "type": "node",
      "id": 358757590,
      "lat": 27.9709,
      "lon": -82.435,
      "tags": {
        "amenity": "place_of_worship",
        "ele": "12",
        "gnis:feature_id": "2481734",
        "name": "New Light Missionary Church",
        "religion": "christian"
      }
    },
    {
      "type": "node",
      "id": 358757596,
      "lat": 27.9835,
      "lon": -82.4427,
      "tags": {
        "amenity": "place_of_worship",
        "ele": "14",
        "gnis:feature_id": "2481736",
        "name": "New Rising Star Church",
        "religion": "christian"
      }
    },
    {
      "type": "node",
      "id": 358757601,
      "lat": 27.99094,
      "lon": -82.440578,
      "tags": {
        "amenity": "place_of_worship",
        "denomination": "baptist",
        "ele": "17",
        "gnis:feature_id": "2481738",
        "name": "New Smyrna Full Gospel Baptist Church",
        "religion": "christian"
      }
    },
    {
      "type": "node",
      "id": 358757649,
      "lat": 27.8899,
      "lon": -82.5045,
      "tags": {
        "amenity": "place_of_worship",
        "ele": "3",
        "gnis:feature_id": "2481753",
        "name": "Peninsular Christian Church",
        "religion": "christian"
      }
    },
    {
      "type": "node",
      "id": 358757652,
      "lat": 27.9708,
      "lon": -82.4493,
      "tags": {
        "amenity": "place_of_worship",
        "ele": "13",
        "gnis:feature_id": "2481754",
        "name": "Pentecostal Alpha Omega Church",
        "religion": "christian"
      }
    },
    {
      "type": "node",
      "id": 358757675,
      "lat": 28.025065,
      "lon": -82.477367,
      "tags": {
        "amenity": "place_of_worship",
        "ele": "9",
        "gnis:feature_id": "2481762",
        "name": "Rainbow Ministries Church of God in Christ",
        "religion": "christian"
      }
    },
    {
      "type": "node",
      "id": 358757692,
      "lat": 27.970636,
      "lon": -82.431821,
      "tags": {
        "amenity": "place_of_worship",
        "ele": "13",
        "gnis:feature_id": "2481768",
        "name": "Rose of Sharon Spiritual Church",
        "religion": "christian"
      }
    },
    {
      "type": "node",
      "id": 358757708,
      "lat": 28.033587,
      "lon": -82.481492,
      "tags": {
        "amenity": "place_of_worship",
        "ele": "12",
        "gnis:feature_id": "2481773",
        "name": "Saint George Coptic Orthodox Church",
        "religion": "christian"
      }
    },
    {
      "type": "node",
      "id": 358757711,
      "lat": 27.9672005,
      "lon": -82.4555972,
      "tags": {
        "addr:city": "Tampa",
        "addr:country": "US",
        "addr:postcode": "33602",
        "addr:state": "FL",
        "addr:street": "N Central Ave",
        "amenity": "place_of_worship",
        "denomination": "anglican",
        "ele": "14",
        "gnis:feature_id": "2481774",
        "name": "Saint James House of Prayer",
        "religion": "christian"
      }
    },
    {
      "type": "node",
      "id": 358757716,
      "lat": 27.936937,
      "lon": -82.4846,
      "tags": {
        "addr:city": "Tampa",
        "addr:housenumber": "2418",
        "addr:state": "FL",
        "addr:street": "West Swann Avenue",
        "amenity": "place_of_worship",
        "denomination": "greek_orthodox",
        "ele": "6",
        "gnis:feature_id": "2481776",
        "name": "Saint John Greek Orthodox Church",
        "phone": "+1-813-876-8830",
        "religion": "christian",
        "website": "https://stjohntpa.org/"
      }
    },
    {
      "type": "node",
      "id": 358757719,
      "lat": 27.9769545,
      "lon": -82.4933982,
      "tags": {
        "amenity": "place_of_worship",
        "denomination": "presbyterian",
        "ele": "10",
        "gnis:feature_id": "2481777",
        "name": "Saint John Presbyterian Church",
        "religion": "christian"
      }
    },
    {
      "type": "node",
      "id": 358757725,
      "lat": 27.9924,
      "lon": -82.479,
      "tags": {
        "amenity": "place_of_worship",
        "denomination": "methodist",
        "ele": "7",
        "gnis:feature_id": "2481779",
        "name": "Saint Johns United Methodist Church",
        "religion": "christian"
      }
    },
    {
      "type": "node",
      "id": 358757747,
      "lat": 27.9782,
      "lon": -82.4178,
      "tags": {
        "amenity": "place_of_worship",
        "denomination": "baptist",
        "ele": "15",
        "gnis:feature_id": "2481786",
        "name": "Saint Matthew Missionary Baptist Church",
        "religion": "christian"
      }
    },
    {
      "type": "node",
      "id": 358757749,
      "lat": 27.975216,
      "lon": -82.430836,
      "tags": {
        "amenity": "place_of_worship",
        "denomination": "baptist",
        "ele": "15",
        "gnis:feature_id": "2481787",
        "name": "Saint Matthews Baptist Church",
        "religion": "christian"
      }
    },
    {
      "type": "node",
      "id": 358757772,
      "lat": 28.01031,
      "lon": -82.469739,
      "tags": {
        "amenity": "place_of_worship",
        "ele": "6",
        "gnis:feature_id": "2481794",
        "name": "Salvation Army Church",
        "religion": "christian"
      }
    },
    {
      "type": "node",
      "id": 358757776,
      "lat": 27.9887,
      "lon": -82.4779,
      "tags": {
        "amenity": "place_of_worship",
        "ele": "6",
        "gnis:feature_id": "2481795",
        "name": "Seminole Church of Christ",
        "religion": "christian"
      }
    },
    {
      "type": "node",
      "id": 358757809,
      "lat": 27.87938,
      "lon": -82.50918,
      "tags": {
        "amenity": "place_of_worship",
        "denomination": "baptist",
        "ele": "3",
        "gnis:feature_id": "2481806",
        "name": "Southside Baptist Church",
        "religion": "christian"
      }
    },
    {
      "type": "node",
      "id": 358757815,
      "lat": 27.9963,
      "lon": -82.45,
      "tags": {
        "amenity": "place_of_worship",
        "ele": "14",
        "gnis:feature_id": "2481808",
        "name": "Spanish Evangelical Church",
        "religion": "christian"
      }
    },
    {
      "type": "node",
      "id": 358757822,
      "lat": 27.9866,
      "lon": -82.4263,
      "tags": {
        "amenity": "place_of_worship",
        "ele": "17",
        "gnis:feature_id": "2481810",
        "name": "Spiritual Temple Church",
        "religion": "christian"
      }
    },
    {
      "type": "node",
      "id": 358757825,
      "lat": 27.982758,
      "lon": -82.42573,
      "tags": {
        "amenity": "place_of_worship",
        "ele": "17",
        "gnis:feature_id": "2481811",
        "name": "Spring of Life Church",
        "religion": "christian"
      }
    },
    {
      "type": "node",
      "id": 358757828,
      "lat": 28.0330252,
      "lon": -82.4093404,
      "tags": {
        "amenity": "place_of_worship",
        "gnis:feature_id": "2481812",
        "name": "Center for Spiritual Living",
        "religion": "religious_science"
      }
    },
    {
      "type": "node",
      "id": 358757835,
      "lat": 27.9966,
      "lon": -82.406,
      "tags": {
        "amenity": "place_of_worship",
        "ele": "18",
        "gnis:feature_id": "2481814",
        "name": "Tampa International Harvest Church",
        "religion": "christian"
      }
    },
    {
      "type": "node",
      "id": 358757840,
      "lat": 27.94,
      "lon": -82.4977,
      "tags": {
        "amenity": "place_of_worship",
        "ele": "6",
        "gnis:feature_id": "2481816",
        "name": "Tampa Unity Church",
        "religion": "christian"
      }
    },
    {
      "type": "node",
      "id": 358757843,
      "lat": 28.0243568,
      "lon": -82.4158073,
      "tags": {
        "amenity": "place_of_worship",
        "ele": "14",
        "gnis:feature_id": "2481817",
        "name": "Temple Crest Church of Christ",
        "religion": "christian"
      }
    },
    {
      "type": "node",
      "id": 358757850,
      "lat": 27.964458,
      "lon": -82.493575,
      "tags": {
        "amenity": "place_of_worship",
        "ele": "11",
        "gnis:feature_id": "2481819",
        "name": "Templo la Luz del Mundo"
      }
    },
    {
      "type": "node",
      "id": 358757861,
      "lat": 27.9683046,
      "lon": -82.4596306,
      "tags": {
        "amenity": "place_of_worship",
        "ele": "13",
        "gnis:feature_id": "2481823",
        "name": "The Solid Rock Church of Jesus",
        "religion": "christian"
      }
    },
    {
      "type": "node",
      "id": 358757868,
      "lat": 27.961775,
      "lon": -82.483217,
      "tags": {
        "amenity": "place_of_worship",
        "denomination": "methodist",
        "ele": "10",
        "gnis:feature_id": "2481825",
        "name": "Trinity Christian Methodist Episcopal Church",
        "religion": "christian"
      }
    },
    {
      "type": "node",
      "id": 358757877,
      "lat": 27.972398,
      "lon": -82.430039,
      "tags": {
        "amenity": "place_of_worship",
        "ele": "15",
        "gnis:feature_id": "2481828",
        "name": "Triumph Church",
        "religion": "christian"
      }
    },
    {
      "type": "node",
      "id": 358757881,
      "lat": 28.031646,
      "lon": -82.452669,
      "tags": {
        "amenity": "place_of_worship",
        "ele": "9",
        "gnis:feature_id": "2481829",
        "name": "True Life Community Worship Church",
        "religion": "christian"
      }
    },
    {
      "type": "node",
      "id": 358757900,
      "lat": 27.9965,
      "lon": -82.51,
      "tags": {
        "amenity": "place_of_worship",
        "ele": "7",
        "gnis:feature_id": "2481835",
        "name": "Universal Church",
        "religion": "christian"
      }
    },
    {
      "type": "node",
      "id": 358757917,
      "lat": 28.025892,
      "lon": -82.465605,
      "tags": {
        "amenity": "place_of_worship",
        "denomination": "baptist",
        "ele": "9",
        "gnis:feature_id": "2481840",
        "name": "Waters Avenue Baptist Church",
        "religion": "christian"
      }
    },
    {
      "type": "node",
      "id": 358757982,
      "lat": 27.9450692,
      "lon": -82.4854173,
      "tags": {
        "addr:city": "Tampa",
        "addr:country": "US",
        "addr:housenumber": "2501",
        "addr:postcode": "33609",
        "addr:state": "FL",
        "addr:street": "West Kennedy Boulevard",
        "amenity": "doctors",
        "gnis:feature_id": "2481930",
        "healthcare": "doctor",
        "name": "Tampa General Hospital Family Care Center Kennedy",
        "opening_hours": "Mo-Fr 07:30-17:00; Sa 09:00-16:00",
        "operator": "Tampa General Hospital",
        "phone": "+1 813 844 1385",
        "website": "https://www.tgh.org/locations/tgh-family-care-center-kennedy"
      }
    },
    {
      "type": "node",
      "id": 358757986,
      "lat": 28.000775,
      "lon": -82.427457,
      "tags": {
        "addr:city": "Tampa",
        "addr:housenumber": "5802",
        "addr:postcode": "33610",
        "addr:street": "North 30th Street",
        "amenity": "clinic",
        "gnis:feature_id": "2481931",
        "healthcare": "clinic",
        "name": "Genesis Women’s Center at Healthpark",
        "opening_hours": "Mo-Fr 07:30-16:00",
        "operator": "Tampa General Hospital",
        "phone": "+1 813 236 5150",
        "website": "https://www.tgh.org/locations/genesis-womens-center-healthpark"
      }
    },
    {
      "type": "node",
      "id": 358757996,
      "lat": 28.000183,
      "lon": -82.427346,
      "tags": {
        "addr:city": "Tampa",
        "addr:housenumber": "5802",
        "addr:postcode": "33610",
        "addr:street": "North 30th Street",
        "amenity": "clinic",
        "gnis:feature_id": "2481933",
        "healthcare": "clinic",
        "name": "Tampa General Hospital Specialty Center at Healthpark",
        "opening_hours": "Mo-Fr 08:00-16:30",
        "operator": "Tampa General Hospital",
        "phone": "+1 813 236 5200",
        "website": "https://www.tgh.org/locations/specialty-center-healthpark"
      }
    },
    {
      "type": "node",
      "id": 358758048,
      "lat": 28.0861,
      "lon": -82.359,
      "tags": {
        "ele": "7",
        "gnis:feature_id": "2482126",
        "leisure": "park",
        "name": "Tampa Palms Hillsborough River Park"
      }
    },
    {
      "type": "node",
      "id": 358758063,
      "lat": 28.0648431,
      "lon": -82.4060967,
      "tags": {
        "gnis:feature_id": "2482132",
        "leisure": "sports_centre",
        "name": "Varsity Tennis Courts",
        "sport": "tennis"
      }
    },
    {
      "type": "node",
      "id": 358758108,
      "lat": 27.997231,
      "lon": -82.494811,
      "tags": {
        "amenity": "post_office",
        "ele": "12",
        "gnis:feature_id": "2485497",
        "name": "Hilldale Post Office"
      }
    },
    {
      "type": "node",
      "id": 358758126,
      "lat": 27.8520932,
      "lon": -82.4912298,
      "tags": {
        "amenity": "post_office",
        "ele": "2",
        "gnis:feature_id": "2485504",
        "name": "MacDill Air Force Base Post Office"
      }
    },
    {
      "type": "node",
      "id": 358758133,
      "lat": 28.091077,
      "lon": -82.403701,
      "tags": {
        "amenity": "post_office",
        "ele": "11",
        "gnis:feature_id": "2485507",
        "name": "New Tampa Station Post Office"
      }
    },
    {
      "type": "node",
      "id": 358758137,
      "lat": 27.9338,
      "lon": -82.508,
      "tags": {
        "amenity": "post_office",
        "ele": "5",
        "gnis:feature_id": "2485509",
        "name": "Peninsula Tampa Post Office"
      }
    },
    {
      "type": "node",
      "id": 358758144,
      "lat": 27.868328,
      "lon": -82.5272539,
      "tags": {
        "amenity": "post_office",
        "ele": "1",
        "gnis:feature_id": "2485512",
        "name": "Port Tampa Post Office"
      }
    },
    {
      "type": "node",
      "id": 358758160,
      "lat": 28.0090653,
      "lon": -82.4518405,
      "tags": {
        "amenity": "post_office",
        "ele": "16",
        "gnis:feature_id": "2485517",
        "name": "Sulphur Springs Post Office"
      }
    },
    {
      "type": "node",
      "id": 358758189,
      "lat": 27.9580457,
      "lon": -82.4831124,
      "tags": {
        "amenity": "post_office",
        "ele": "9",
        "gnis:feature_id": "2485526",
        "name": "West Tampa Post Office",
        "operator": "United States Postal Service",
        "operator:short": "USPS",
        "operator:type": "public",
        "operator:website": "https://www.usps.com",
        "operator:wikidata": "Q668687",
        "operator:wikipedia": "en:United States Postal Service",
        "website": "https://tools.usps.com/find-location.htm?location=1387212"
      }
    },
    {
      "type": "node",
      "id": 358758313,
      "lat": 27.9590304,
      "lon": -82.4774783,
      "tags": {
        "addr:city": "Tampa",
        "addr:country": "US",
        "addr:postcode": "33607",
        "addr:state": "FL",
        "addr:street": "N Rome Ave",
        "amenity": "school",
        "ele": "7",
        "gnis:feature_id": "2485571",
        "name": "Mount Pleasant Standard Base Middle School"
      }
    },
    {
      "type": "node",
      "id": 358758353,
      "lat": 28.0565736,
      "lon": -82.4047454,
      "tags": {
        "amenity": "school",
        "ele": "18",
        "gnis:feature_id": "2485584",
        "name": "Patel Charter School"
      }
    },
    {
      "type": "node",
      "id": 358758357,
      "lat": 27.9963957,
      "lon": -82.4154041,
      "tags": {
        "amenity": "school",
        "ele": "17",
        "gnis:feature_id": "2485585",
        "name": "Pepin Academy of Tampa"
      }
    },
    {
      "type": "node",
      "id": 358758378,
      "lat": 28.0094063,
      "lon": -82.4756585,
      "tags": {
        "amenity": "school",
        "ele": "9",
        "gnis:feature_id": "2485592",
        "name": "Richardson Academy"
      }
    },
    {
      "type": "node",
      "id": 358758432,
      "lat": 27.9889,
      "lon": -82.4826,
      "tags": {
        "amenity": "school",
        "ele": "8",
        "gnis:feature_id": "2485612",
        "name": "Trinity School for Children Lower Division"
      }
    },
    {
      "type": "node",
      "id": 358758436,
      "lat": 27.9898,
      "lon": -82.4845,
      "tags": {
        "amenity": "school",
        "ele": "10",
        "gnis:feature_id": "2485613",
        "name": "Trinity School for Children Upper Division"
      }
    },
    {
      "type": "node",
      "id": 358758442,
      "lat": 28.0304,
      "lon": -82.4105,
      "tags": {
        "amenity": "school",
        "ele": "13",
        "gnis:feature_id": "2485615",
        "name": "Village of Excellence Academy"
      }
    },
    {
      "type": "node",
      "id": 358758446,
      "lat": 27.9894,
      "lon": -82.4591,
      "tags": {
        "amenity": "school",
        "ele": "7",
        "gnis:feature_id": "2485616",
        "name": "Walton Academy for the Performing Arts"
      }
    },
    {
      "type": "node",
      "id": 358758466,
      "lat": 27.9918,
      "lon": -82.4072,
      "tags": {
        "amenity": "school",
        "ele": "19",
        "gnis:feature_id": "2485623",
        "name": "Williams Middle Magnet School"
      }
    },
    {
      "type": "node",
      "id": 360681185,
      "lat": 28.0697008,
      "lon": -82.3673473,
      "tags": {
        "amenity": "fast_food",
        "created_by": "Potlatch 0.10f",
        "name": "Lenny's Sub Shop"
      }
    },
    {
      "type": "node",
      "id": 361450179,
      "lat": 27.9671122,
      "lon": -82.4504913,
      "tags": {
        "amenity": "place_of_worship",
        "created_by": "Potlatch 0.10f",
        "denomination": "baptist",
        "name": "Eben-Ezer Baptist Haitian Church",
        "religion": "christian"
      }
    },
    {
      "type": "node",
      "id": 361456240,
      "lat": 27.961517,
      "lon": -82.4550985,
      "tags": {
        "amenity": "place_of_worship",
        "created_by": "Potlatch 0.10f",
        "denomination": "baptist",
        "name": "Friendly Missionary Baptist",
        "religion": "christian"
      }
    },
    {
      "type": "node",
      "id": 362387368,
      "lat": 27.9666559,
      "lon": -82.4544764,
      "tags": {
        "amenity": "place_of_worship",
        "created_by": "Potlatch 0.10f",
        "denomination": "pentecostal",
        "name": "Pentecostal Church of God",
        "religion": "christian"
      }
    },
    {
      "type": "node",
      "id": 364132331,
      "lat": 27.927235,
      "lon": -82.4534624,
      "tags": {
        "addr:city": "Tampa",
        "addr:housenumber": "209",
        "addr:postcode": "33606",
        "addr:state": "FL",
        "addr:street": "East Davis Boulevard",
        "amenity": "restaurant",
        "contact:website": "www.margaritasmexicanrestaurant.com/",
        "cuisine": "mexican",
        "name": "Margarita's Mexican Restaurant",
        "opening_hours": "Su-Th 10:00-22:00; Fr-Sa 10:00-23:00",
        "outdoor_seating": "yes",
        "phone": "+1 813-251-0558",
        "smoking": "outside",
        "takeaway": "yes",
        "website": "www.margaritasmexicanrestaurant.com/"
      }
    },
    {
      "type": "node",
      "id": 364553346,
      "lat": 28.1342744,
      "lon": -82.3849091,
      "tags": {
        "addr:city": "Tampa",
        "addr:housenumber": "17410",
        "addr:postcode": "33647",
        "addr:state": "FL",
        "addr:street": "Commerce Park Boulevard",
        "amenity": "school",
        "grades": "8-12",
        "name": "Freedom High School and Liberty Middle School",
        "website": "https://www.mysdhc.org/freedom"
      }
    },
    {
      "type": "node",
      "id": 365331683,
      "lat": 27.9629707,
      "lon": -82.4737902,
      "tags": {
        "addr:city": "Tampa",
        "addr:country": "US",
        "addr:housenumber": "2305",
        "addr:postcode": "33607",
        "addr:state": "FL",
        "addr:street": "North Willow Avenue",
        "amenity": "restaurant",
        "cuisine": "seafood",
        "delivery": "no",
        "name": "Rick's on the River",
        "outdoor_seating": "yes",
        "smoking": "outside",
        "takeaway": "yes",
        "toilets": "yes",
        "toilets:access": "customers"
      }
    },
    {
      "type": "node",
      "id": 365774816,
      "lat": 27.9447757,
      "lon": -82.4651799,
      "tags": {
        "addr:city": "Tampa",
        "addr:country": "US",
        "addr:housenumber": "442",
        "addr:postcode": "33606",
        "addr:state": "FL",
        "addr:street": "West Kennedy Boulevard",
        "amenity": "restaurant",
        "name": "Mise en Place",
        "website": "https://miseonline.com/"
      }
    },
    {
      "type": "node",
      "id": 365774926,
      "lat": 27.948592,
      "lon": -82.4591121,
      "tags": {
        "addr:city": "Tampa",
        "addr:housenumber": "513",
        "addr:postcode": "33602",
        "addr:state": "FL",
        "addr:street": "North Tampa Street",
        "amenity": "restaurant",
        "name": "Spain Restaurant & Toma Bar",
        "opening_hours": "Mo 08:00-15:00;Tu-Fr 08:00-21:00;Sa 16:00-22:00",
        "outdoor_seating": "no",
        "phone": "+1 813-223-2831"
      }
    },
    {
      "type": "node",
      "id": 365958085,
      "lat": 27.9505815,
      "lon": -82.4590187,
      "tags": {
        "addr:city": "Tampa",
        "addr:country": "US",
        "addr:housenumber": "719",
        "addr:postcode": "33602",
        "addr:state": "FL",
        "addr:street": "N Franklin St",
        "amenity": "bar",
        "name": "The Hub Bar",
        "phone": "+1-813-229-1553",
        "website": "https://www.thehubbartampa.com/"
      }
    },
    {
      "type": "node",
      "id": 366001884,
      "lat": 27.9414652,
      "lon": -82.4682612,
      "tags": {
        "amenity": "fuel",
        "brand": "Sunoco",
        "brand:wikidata": "Q1423218",
        "check_date": "2024-09-27",
        "name": "Sunoco",
        "phone": "+1 813-769-9698",
        "website": "https://www.sunoco.com/locations/store/818-platt-st-tampa-fl-0299185900"
      }
    },
    {
      "type": "node",
      "id": 366011678,
      "lat": 27.9413728,
      "lon": -82.4664184,
      "tags": {
        "addr:city": "Tampa",
        "addr:country": "US",
        "addr:housenumber": "614",
        "addr:postcode": "33606",
        "addr:state": "FL",
        "addr:street": "West Platt Street",
        "amenity": "restaurant",
        "brand": "Pizza Hut",
        "brand:wikidata": "Q191615",
        "cuisine": "pizza",
        "name": "Pizza Hut",
        "outdoor_seating": "no",
        "phone": "+1 813-251-3399",
        "takeaway": "yes",
        "website": "https://locations.pizzahut.com/fl/tampa/614-w-platt-st"
      }
    },
    {
      "type": "node",
      "id": 366181730,
      "lat": 27.9400109,
      "lon": -82.4674041,
      "tags": {
        "addr:city": "Tampa",
        "addr:country": "US",
        "addr:postcode": "33606",
        "addr:state": "FL",
        "addr:street": "W Horatio Street",
        "amenity": "theatre",
        "name": "Friday Morning Musicale"
      }
    },
    {
      "type": "node",
      "id": 367820986,
      "lat": 28.0029569,
      "lon": -82.4291997,
      "tags": {
        "addr:state": "FL",
        "amenity": "fire_station",
        "ele": "15",
        "gnis:feature_id": "2131658",
        "name": "Hillsborough County Fire / Rescue",
        "source": "USGS Geonames"
      }
    },
    {
      "type": "node",
      "id": 367822215,
      "lat": 28.0031593,
      "lon": -82.4509925,
      "tags": {
        "addr:state": "FL",
        "amenity": "fire_station",
        "ele": "15",
        "gnis:feature_id": "2481308",
        "name": "Tampa Fire Station No. 7",
        "source": "USGS Geonames",
        "source:name": "survey"
      }
    },
    {
      "type": "node",
      "id": 367822219,
      "lat": 27.9804,
      "lon": -82.4554,
      "tags": {
        "addr:state": "FL",
        "amenity": "fire_station",
        "ele": "13",
        "gnis:feature_id": "2481306",
        "name": "Tampa City Fire Station 5",
        "source": "USGS Geonames"
      }
    },
    {
      "type": "node",
      "id": 367822230,
      "lat": 27.9988,
      "lon": -82.4266,
      "tags": {
        "addr:state": "FL",
        "amenity": "fire_station",
        "ele": "17",
        "gnis:feature_id": "2481300",
        "name": "Tampa City Fire Station 18",
        "source": "USGS Geonames"
      }
    },
    {
      "type": "node",
      "id": 367822231,
      "lat": 27.8622,
      "lon": -82.529,
      "tags": {
        "addr:state": "FL",
        "amenity": "fire_station",
        "ele": "1",
        "gnis:feature_id": "2481301",
        "name": "Tampa City Fire Station 19",
        "source": "USGS Geonames"
      }
    },
    {
      "type": "node",
      "id": 367822234,
      "lat": 27.9637,
      "lon": -82.3979,
      "tags": {
        "addr:state": "FL",
        "amenity": "fire_station",
        "ele": "9",
        "gnis:feature_id": "2481298",
        "name": "Tampa City Fire Station 16",
        "source": "USGS Geonames"
      }
    },
    {
      "type": "node",
      "id": 367822235,
      "lat": 27.921573,
      "lon": -82.450167,
      "tags": {
        "addr:city": "Tampa",
        "addr:housenumber": "601",
        "addr:state": "FL",
        "addr:street": "East Davis Boulevard",
        "amenity": "fire_station",
        "ele": "0",
        "gnis:feature_id": "2481299",
        "name": "Tampa Fire Station #17",
        "operator": "Tampa Fire Rescue",
        "source": "USGS Geonames"
      }
    },
    {
      "type": "node",
      "id": 367822239,
      "lat": 27.9633736,
      "lon": -82.4351809,
      "tags": {
        "amenity": "fire_station",
        "ele": "7",
        "gnis:feature_id": "2481305",
        "name": "Tampa City Fire Station 4",
        "source": "USGS Geonames"
      }
    },
    {
      "type": "node",
      "id": 367822241,
      "lat": 28.0907,
      "lon": -82.4051,
      "tags": {
        "addr:state": "FL",
        "amenity": "fire_station",
        "ele": "12",
        "gnis:feature_id": "2481302",
        "name": "Tampa City Fire Station 20",
        "source": "USGS Geonames"
      }
    },
    {
      "type": "node",
      "id": 367822342,
      "lat": 28.0268,
      "lon": -82.4541,
      "tags": {
        "addr:state": "FL",
        "amenity": "fire_station",
        "ele": "9",
        "gnis:feature_id": "2481293",
        "name": "Tampa City Fire Station 11",
        "source": "USGS Geonames"
      }
    },
    {
      "type": "node",
      "id": 367822345,
      "lat": 27.971747,
      "lon": -82.422549,
      "tags": {
        "addr:state": "FL",
        "amenity": "fire_station",
        "ele": "15",
        "gnis:feature_id": "2481292",
        "name": "Tampa City Fire Station 10",
        "source": "USGS Geonames"
      }
    },
    {
      "type": "node",
      "id": 367822348,
      "lat": 27.9964,
      "lon": -82.4921,
      "tags": {
        "addr:state": "FL",
        "amenity": "fire_station",
        "ele": "12",
        "gnis:feature_id": "2481294",
        "name": "Tampa City Fire Station 12",
        "source": "USGS Geonames"
      }
    },
    {
      "type": "node",
      "id": 367822352,
      "lat": 27.9305373,
      "lon": -82.5081779,
      "tags": {
        "addr:state": "FL",
        "amenity": "fire_station",
        "ele": "5",
        "gnis:feature_id": "2481296",
        "name": "Tampa City Fire Station 14",
        "source": "USGS Geonames"
      }
    },
    {
      "type": "node",
      "id": 367823628,
      "lat": 28.011,
      "lon": -82.4508,
      "tags": {
        "addr:state": "FL",
        "amenity": "kindergarten",
        "ele": "16",
        "gnis:feature_id": "2481272",
        "name": "Saint Francis Childrens Day Care Center",
        "source": "USGS Geonames"
      }
    },
    {
      "type": "node",
      "id": 367823631,
      "lat": 28.0624451,
      "lon": -82.4208145,
      "tags": {
        "addr:state": "FL",
        "amenity": "kindergarten",
        "education": "kindergarten",
        "ele": "12",
        "gnis:feature_id": "2481242",
        "name": "Moffitt Child Care Center",
        "source": "USGS Geonames"
      }
    },
    {
      "type": "node",
      "id": 367823632,
      "lat": 28.0573594,
      "lon": -82.4047105,
      "tags": {
        "addr:state": "FL",
        "amenity": "kindergarten",
        "ele": "17",
        "gnis:feature_id": "2481170",
        "name": "Education Research Child Care Development Center",
        "source": "USGS Geonames"
      }
    },
    {
      "type": "node",
      "id": 367824923,
      "lat": 28.0651302,
      "lon": -82.4121462,
      "tags": {
        "addr:state": "FL",
        "amenity": "parking",
        "ele": "17",
        "gnis:feature_id": "2481154",
        "name": "Crescent Hill Parking Garage",
        "source": "USGS Geonames"
      }
    },
    {
      "type": "node",
      "id": 367825458,
      "lat": 27.9615214,
      "lon": -82.5339698,
      "tags": {
        "addr:state": "FL",
        "amenity": "police",
        "ele": "1",
        "gnis:feature_id": "2333793",
        "name": "Tampa International Airport Police Department",
        "source": "USGS Geonames"
      }
    },
    {
      "type": "node",
      "id": 367825459,
      "lat": 27.9790746,
      "lon": -82.4352668,
      "tags": {
        "addr:state": "FL",
        "amenity": "police",
        "ele": "15",
        "gnis:feature_id": "2333794",
        "name": "Tampa Police Department District 3 Headquarters",
        "source": "USGS Geonames"
      }
    },
    {
      "type": "node",
      "id": 367825523,
      "lat": 28.0283696,
      "lon": -82.4577346,
      "tags": {
        "addr:state": "FL",
        "amenity": "police",
        "ele": "10",
        "gnis:feature_id": "2333816",
        "name": "Hillsborough County Sheriff's Office Juvenile Assessment Center",
        "source": "USGS Geonames"
      }
    },
    {
      "type": "node",
      "id": 367825644,
      "lat": 28.0072901,
      "lon": -82.451701,
      "tags": {
        "addr:state": "FL",
        "amenity": "police",
        "ele": "15",
        "gnis:feature_id": "2333692",
        "name": "West Central Florida Police Department",
        "source": "USGS Geonames"
      }
    },
    {
      "type": "node",
      "id": 367825832,
      "lat": 27.9599628,
      "lon": -82.373667,
      "tags": {
        "addr:state": "FL",
        "amenity": "police",
        "ele": "6",
        "gnis:feature_id": "2333568",
        "name": "Hillsborough County Sheriff's Office Work Release Center",
        "source": "USGS Geonames"
      }
    },
    {
      "type": "node",
      "id": 367825994,
      "lat": 28.0634699,
      "lon": -82.4144865,
      "tags": {
        "addr:state": "FL",
        "amenity": "theatre",
        "ele": "14",
        "gnis:feature_id": "2481377",
        "name": "Teaching Auditorium and Theatre I",
        "source": "USGS Geonames"
      }
    },
    {
      "type": "node",
      "id": 367826042,
      "lat": 28.0635302,
      "lon": -82.4149134,
      "tags": {
        "addr:state": "FL",
        "amenity": "theatre",
        "ele": "14",
        "gnis:feature_id": "2481379",
        "name": "Theatre II Building",
        "short_name": "THR",
        "source": "USGS Geonames"
      }
    },
    {
      "type": "node",
      "id": 367826886,
      "lat": 28.0606131,
      "lon": -82.4076536,
      "tags": {
        "addr:state": "FL",
        "ele": "17",
        "gnis:feature_id": "2481369",
        "leisure": "sports_centre",
        "name": "Recreation Center",
        "source": "USGS Geonames"
      }
    },
    {
      "type": "node",
      "id": 367826887,
      "lat": 28.0612866,
      "lon": -82.407639,
      "tags": {
        "addr:state": "FL",
        "ele": "15",
        "gnis:feature_id": "2481359",
        "leisure": "sports_centre",
        "name": "Physical Education Building",
        "source": "USGS Geonames"
      }
    },
    {
      "type": "node",
      "id": 367827480,
      "lat": 28.055677,
      "lon": -82.4126278,
      "tags": {
        "addr:state": "FL",
        "ele": "16",
        "gnis:feature_id": "2481322",
        "name": "Campus Information Center",
        "source": "USGS Geonames",
        "tourism": "information"
      }
    },
    {
      "type": "node",
      "id": 368280878,
      "lat": 27.9368463,
      "lon": -82.4762435,
      "tags": {
        "amenity": "parking",
        "created_by": "Potlatch 0.10f"
      }
    },
    {
      "type": "node",
      "id": 368282622,
      "lat": 27.9369297,
      "lon": -82.4753079,
      "tags": {
        "amenity": "parking",
        "created_by": "Potlatch 0.10f"
      }
    },
    {
      "type": "node",
      "id": 368284410,
      "lat": 27.9349961,
      "lon": -82.4763207,
      "tags": {
        "access": "customers",
        "amenity": "parking",
        "created_by": "Potlatch 0.10f",
        "fee": "no",
        "parking": "multi-storey"
      }
    },
    {
      "type": "node",
      "id": 368960953,
      "lat": 27.9370848,
      "lon": -82.4760998,
      "tags": {
        "addr:city": "Tampa",
        "addr:country": "US",
        "addr:postcode": "33606",
        "addr:state": "FL",
        "addr:street": "W Swann Av Prkg",
        "amenity": "restaurant",
        "cuisine": "italian",
        "name": "Timpano Italian Chop House"
      }
    },